{
    "locations": [{ "location": "Valdivia", "id": 212912788, "lat": "-39.8139", "lng": "-73.2458" },
        { "location": "Osorno, Chile", "id": 218227367, "lat": "-40.5761", "lng": "-73.1294" },
        { "location": "Osorno X Región de Los Lagos", "id": 511210972, "lat": "-40.573392749811", "lng": "-73.125793933868" },
        { "location": "Niebla, Chile", "id": 212895186, "lat": "-39.869959624557", "lng": "-73.402068759836" },
        { "location": "Chile Chico, Chile", "id": 250442647, "lat": "-46.540768,", "lng": "-71.723512" },
        { "location": "Chile Chico", "id": 1040725229331453, "lat": "-46.76684,", "lng": "-72.58468" },
        { "location": "Paillaco, Chile", "id": 223427349, "lat": "-40.0700999", "lng": "-72.87154" },
        { "location": "San José de la Mariquina, Chile,", "id": 238458576, "lat": "-39.540285", "lng": "-72.962906" },
        { "location": "Ancud, Chile", "id": 246014899, "lat": "-41.8675", "lng": "-73.8278" },
        { "location": "Ancud Chiloe", "id": 680172932155010, "lat": "-41.866682595134", "lng": "-73.828691484757" },
        { "location": "Ancud - City", "id": 402534747, "lat": "-41.89049226", "lng": "-73.94319349" },
        { "location": "Futrono, Chile", "id": 258887655, "lat": "-40.12904", "lng": "-72.39267" },
        { "location": "Máfil, Chile", "id": 278101238, "lat": "-39.66512", "lng": "-72.95328" },
        { "location": "Máfil, Región de los Ríos", "id": 236265004, "lat": "-39.66603221", "lng": "-72.950148444" },
        { "location": "Lanco, Chile", "id": 246387509, "lat": "-39.45195", "lng": "-72.775" },
        { "location": "Lanco, X Región De Los Ríos", "id": 1836159026675247, "lat": "-39.452134531054", "lng": "-72.77484542641" },
        { "location": "Panguipulli, Chile", "id": 214686933, "lat": "-39.64226", "lng": "-72.33346" },
        { "location": "Los Lagos, Chile", "id": 236442295, "lat": "-39.85886", "lng": "-72.80497" }
    ]
}